{
"type": "FeatureCollection",
"name": "Eislaufbahnen",
"bbox": [ 10.92948, 47.07716, 11.71554, 47.35276 ],                                                                                
"features": [
{ "type": "Feature", "properties": { "NAME": "Eishalle Götzens", "OPEN": "Di u. Do-So 13:30-16:15; Mo u. Mi off", "SAISON": "ganzjährig", "KONTAKT_EM": "eissportzentrum@goetzens.gv.at", "KONTAKT_TE": "+43 (0)699 15905097\n", "ADDRESS": "Neugötzner-Straße 48\nA-6091 Götzens", "LINK": "\nhttps://www.goetzens.gv.at/Eissportzentrum/Publikumslauf/Oeffnungszeiten \n" }, "bbox": [ 11.32236, 47.23281, 11.32236, 47.23281 ], "geometry": { "type": "Point", "coordinates": [ 11.32236, 47.23281 ] } },
{ "type": "Feature", "properties": { "NAME": "Eishalle Steinach", "OPEN": "Mo-So 14:00-16:30; Sa 14:00-16:30 u. 19:00-22:00", "SAISON": "November-Februar", "KONTAKT_EM": "gemeinde@steinach.gv.at", "KONTAKT_TE": "+43 5272 6251", "ADDRESS": "Kranebitten, 6150 Steinach am Brenner", "LINK": "https://www.steinach.tirol.gv.at/Einrichtungen/Infrastruktur/Kunsteis-_und_Mehrzweckhalle" }, "bbox": [ 11.46778, 47.09696, 11.46778, 47.09696 ], "geometry": { "type": "Point", "coordinates": [ 11.46778, 47.09696 ] } },
{ "type": "Feature", "properties": { "NAME": "Eislaufplatz am Baggersee", "OPEN": "Mo-So 10:00-20:00", "SAISON": "Ende Nov-Feb", "KONTAKT_EM": "post.sportamt@innsbruck.gv.at", "KONTAKT_TE": "+43 664 / 81 18 709", "ADDRESS": "Archenweg 62, 6020 Innsbruck", "LINK": "https://www.innsbruck.info/sport/winter/eissport/eislaufplaetze/detail/infrastruktur/kunsteislaufplatz-am-baggersee-innsbruck.html" }, "bbox": [ 11.44981, 47.26653, 11.44981, 47.26653 ], "geometry": { "type": "Point", "coordinates": [ 11.44981, 47.26653 ] } },
{ "type": "Feature", "properties": { "NAME": "Eislaufplatz\nHötting-West", "OPEN": "Mo-So 10:00-20:00; Feiertage abweichend", "SAISON": "Dez-Feb", "KONTAKT_EM": "post.sportamt@innsbruck.gv.at", "KONTAKT_TE": "+43 664 / 81 18 712", "ADDRESS": "Franz-Baumann-Weg 8, 6020 Innsbruck", "LINK": "https://www.innsbruck.info/sport/winter/eissport/eislaufplaetze/detail/infrastruktur/kunsteislaufplatz-hoetting-west-innsbruck.html" }, "bbox": [ 11.34386, 47.26644, 11.34386, 47.26644 ], "geometry": { "type": "Point", "coordinates": [ 11.34386, 47.26644 ] } },
{ "type": "Feature", "properties": { "NAME": "Eislaufplatz Igls", "OPEN": "Mo-So 10:00-20:00", "SAISON": "Dez-Feb", "KONTAKT_EM": "post.sportamt@innsbruck.gv.at\n\n", "KONTAKT_TE": "+43 664 / 81 18 776", "ADDRESS": "Bilgeristraße 24, 6080 Innsbruck", "LINK": "https://www.innsbruck.info/sport/winter/eissport/eislaufplaetze/detail/infrastruktur/eislaufplatz-igls-igls.html" }, "bbox": [ 11.41388, 47.22957, 11.41388, 47.22957 ], "geometry": { "type": "Point", "coordinates": [ 11.41388, 47.22957 ] } },
{ "type": "Feature", "properties": { "NAME": "Olympiworld Innsbruck", "OPEN": "Mo-Fr 14:00-16:50; Sa-So 12:00-16:50 u. 20:00-21:50", "SAISON": "Nov-Feb/März", "KONTAKT_EM": "office@olympiaworld.at", "KONTAKT_TE": "+43 (512) 33838-0", "ADDRESS": "Olympiastraße 10, 6020 Innsbruck", "LINK": "https://www.olympiaworld.at/" }, "bbox": [ 11.40972, 47.25706, 11.40972, 47.25706 ], "geometry": { "type": "Point", "coordinates": [ 11.40972, 47.25706 ] } },
{ "type": "Feature", "properties": { "NAME": "Eislaufplatz Schwaz", "OPEN": "Mo 13:30-17:00; Di 13:30-16:00; Mi-Sa 13:30-17:00; Fr-Sa 19:30-21:30; So 13:30-17:30", "SAISON": "Nov-März", "KONTAKT_EM": "stadtamt@chwaz.at", "KONTAKT_TE": "+43 676 83697 462", "ADDRESS": "Johannes-Messner-Weg 12", "LINK": null }, "bbox": [ 11.71554, 47.35276, 11.71554, 47.35276 ], "geometry": { "type": "Point", "coordinates": [ 11.71554, 47.35276 ] } },
{ "type": "Feature", "properties": { "NAME": "Eislaufplatz\nSillpark", "OPEN": "Mo-So 10:00-20:00", "SAISON": "Nov-Feb", "KONTAKT_EM": "post.sportamt@innsbruck.gv.at", "KONTAKT_TE": "+43 664 / 81 18 710", "ADDRESS": "Museumstraße 38, 6020 Innsbruck", "LINK": "https://www.innsbruck.info/sport/winter/eissport/eislaufplaetze/detail/infrastruktur/kunsteislaufplatz-sillpark-innsbruck.html" }, "bbox": [ 11.40319, 47.26627, 11.40319, 47.26627 ], "geometry": { "type": "Point", "coordinates": [ 11.40319, 47.26627 ] } },
{ "type": "Feature", "properties": { "NAME": "Eislaufplatz\nSilz", "OPEN": "13:30-16:30", "SAISON": "Nov-Feb", "KONTAKT_EM": "bauamt@silz.gv.at", "KONTAKT_TE": "+43 664 831 95 52", "ADDRESS": "Raimund-Wallnöfer-Weg 8 6424 Silz", "LINK": "https://www.silz.tirol.gv.at/Einrichtungen/Freizeit_und_Soziales/Eis_Arena" }, "bbox": [ 10.92948, 47.26389, 10.92948, 47.26389 ], "geometry": { "type": "Point", "coordinates": [ 10.92948, 47.26389 ] } },
{ "type": "Feature", "properties": { "NAME": "Eislaufplatz\nTrins", "OPEN": "-", "SAISON": "-", "KONTAKT_EM": "gemeinde@trins.tirol.gv.at", "KONTAKT_TE": "+43 677 61666391", "ADDRESS": "Trins 2037, 6152 Trins", "LINK": "https://www.wipptal.at/eislaufen" }, "bbox": [ 11.41366, 47.07716, 11.41366, 47.07716 ], "geometry": { "type": "Point", "coordinates": [ 11.41366, 47.07716 ] } },
{ "type": "Feature", "properties": { "NAME": "Eislaufplatz Vomp", "OPEN": "Sa 13:00-16:00 u. 20:00-21:30", "SAISON": "Nov-Feb", "KONTAKT_EM": "gemeinde@vomp.gv.at", "KONTAKT_TE": "+43 5242 63237", "ADDRESS": "Albert-Nöckl-Platz 1, 6134 Vomp", "LINK": "https://www.vomp.tirol.gv.at/Kunsteisbahn_1" }, "bbox": [ 11.69135, 47.34472, 11.69135, 47.34472 ], "geometry": { "type": "Point", "coordinates": [ 11.69135, 47.34472 ] } },
{ "type": "Feature", "properties": { "NAME": "Eislaufplatz Wattens", "OPEN": "Mo-Fr 13:30-17:00; Sa-So 13:30-19:00", "SAISON": "Nov-Feb", "KONTAKT_EM": "info@hall-wattens.at", "KONTAKT_TE": "+43 5224 55445", "ADDRESS": "Sebastian-Schrott-Straße 7, 6112 Wattens", "LINK": "https://www.hall-wattens.at/de/eislaufen-wattens-winter.html" }, "bbox": [ 11.58223, 47.29613, 11.58223, 47.29613 ], "geometry": { "type": "Point", "coordinates": [ 11.58223, 47.29613 ] } },
{ "type": "Feature", "properties": { "NAME": "Eislaufplatz\nZirl", "OPEN": "Mo-So 13:15 -16:15; Sa 20:00-21:30", "SAISON": "Nov-Feb", "KONTAKT_EM": "Mailmarktgemeinde@zirl.gv.at", "KONTAKT_TE": "+43 676 9595089", "ADDRESS": "Bahnhofstraße 39, 6170 Zirl", "LINK": "https://www.innsbruck.info/sport/winter/eissport/eislaufplaetze/detail/infrastruktur/eislaufplatz-zirl-zirl.html" }, "bbox": [ 11.23538, 47.26557, 11.23538, 47.26557 ], "geometry": { "type": "Point", "coordinates": [ 11.23538, 47.26557 ] } }
]
}
